{
  "cityid": "101010100",
  "city": "北京",
  "cityEn": "beijing",
  "country": "中国",
  "countryEn": "China",
  "update_time": "2021-12-16 12:57:56",
  "data": [{
    "day": "16日（星期四）",
    "date": "2021-12-16",
    "week": "星期四",
    "wea": "晴",
    "wea_img": "qing",
    "wea_day": "晴",
    "wea_day_img": "qing",
    "wea_night": "晴",
    "wea_night_img": "qing",
    "tem": "3",
    "tem1": "4",
    "tem2": "-7",
    "humidity": "19%",
    "visibility": "30km",
    "pressure": "1024",
    "win": ["北风", "北风"],
    "win_speed": "<3级",
    "win_meter": "16km\/h",
    "sunrise": "07:29",
    "sunset": "16:50",
    "air": "53",
    "air_level": "良",
    "air_tips": "空气好，可以外出活动，除极少数对污染物特别敏感的人群以外，对公众没有危害！",
    "alarm": {
      "alarm_type": "",
      "alarm_level": "",
      "alarm_content": ""
    },
    "hours": [{
      "hours": "08时",
      "wea": "晴",
      "wea_img": "qing",
      "tem": "1",
      "win": "北风",
      "win_speed": "<3级"
    }, {
      "hours": "09时",
      "wea": "晴",
      "wea_img": "qing",
      "tem": "2",
      "win": "东南风",
      "win_speed": "<3级"
    }, {
      "hours": "10时",
      "wea": "晴",
      "wea_img": "qing",
      "tem": "3",
      "win": "西南风",
      "win_speed": "<3级"
    }, {
      "hours": "11时",
      "wea": "晴",
      "wea_img": "qing",
      "tem": "3",
      "win": "北风",
      "win_speed": "<3级"
    }, {
      "hours": "12时",
      "wea": "晴",
      "wea_img": "qing",
      "tem": "3",
      "win": "北风",
      "win_speed": "<3级"
    }, {
      "hours": "13时",
      "wea": "晴",
      "wea_img": "qing",
      "tem": "3",
      "win": "西北风",
      "win_speed": "<3级"
    }, {
      "hours": "14时",
      "wea": "晴",
      "wea_img": "qing",
      "tem": "2",
      "win": "西北风",
      "win_speed": "<3级"
    }, {
      "hours": "15时",
      "wea": "晴",
      "wea_img": "qing",
      "tem": "2",
      "win": "西北风",
      "win_speed": "<3级"
    }, {
      "hours": "16时",
      "wea": "晴",
      "wea_img": "qing",
      "tem": "1",
      "win": "西北风",
      "win_speed": "<3级"
    }, {
      "hours": "17时",
      "wea": "晴",
      "wea_img": "qing",
      "tem": "0",
      "win": "西北风",
      "win_speed": "<3级"
    }, {
      "hours": "18时",
      "wea": "晴",
      "wea_img": "qing",
      "tem": "0",
      "win": "北风",
      "win_speed": "<3级"
    }, {
      "hours": "19时",
      "wea": "晴",
      "wea_img": "qing",
      "tem": "0",
      "win": "北风",
      "win_speed": "<3级"
    }, {
      "hours": "20时",
      "wea": "晴",
      "wea_img": "qing",
      "tem": "0",
      "win": "北风",
      "win_speed": "<3级"
    }, {
      "hours": "21时",
      "wea": "晴",
      "wea_img": "qing",
      "tem": "-2",
      "win": "北风",
      "win_speed": "<3级"
    }, {
      "hours": "22时",
      "wea": "晴",
      "wea_img": "qing",
      "tem": "-2",
      "win": "北风",
      "win_speed": "<3级"
    }, {
      "hours": "23时",
      "wea": "晴",
      "wea_img": "qing",
      "tem": "-2",
      "win": "北风",
      "win_speed": "<3级"
    }, {
      "hours": "00时",
      "wea": "晴",
      "wea_img": "qing",
      "tem": "-3",
      "win": "北风",
      "win_speed": "<3级"
    }, {
      "hours": "01时",
      "wea": "晴",
      "wea_img": "qing",
      "tem": "-4",
      "win": "西北风",
      "win_speed": "<3级"
    }, {
      "hours": "02时",
      "wea": "晴",
      "wea_img": "qing",
      "tem": "-4",
      "win": "西北风",
      "win_speed": "<3级"
    }, {
      "hours": "03时",
      "wea": "晴",
      "wea_img": "qing",
      "tem": "-5",
      "win": "西北风",
      "win_speed": "<3级"
    }, {
      "hours": "04时",
      "wea": "晴",
      "wea_img": "qing",
      "tem": "-5",
      "win": "西北风",
      "win_speed": "<3级"
    }, {
      "hours": "05时",
      "wea": "晴",
      "wea_img": "qing",
      "tem": "-6",
      "win": "北风",
      "win_speed": "<3级"
    }, {
      "hours": "06时",
      "wea": "晴",
      "wea_img": "qing",
      "tem": "-6",
      "win": "西北风",
      "win_speed": "<3级"
    }, {
      "hours": "07时",
      "wea": "晴",
      "wea_img": "qing",
      "tem": "-6",
      "win": "西北风",
      "win_speed": "<3级"
    }],
    "index": [{
      "title": "紫外线指数",
      "level": "中等",
      "desc": "涂擦SPF大于15、PA+防晒护肤品。"
    }, {
      "title": "减肥指数",
      "level": "一颗星",
      "desc": "天凉室内可健身，户外运动需保暖。"
    }, {
      "title": "血糖指数",
      "level": "不易波动",
      "desc": "天气条件好，血糖不易波动，可适时进行户外锻炼。"
    }, {
      "title": "穿衣指数",
      "level": "寒冷",
      "desc": "建议着厚羽绒服等隆冬服装。"
    }, {
      "title": "洗车指数",
      "level": "适宜",
      "desc": "天气较好，适合擦洗汽车。"
    }, {
      "title": "空气污染扩散指数",
      "level": "中",
      "desc": "易感人群应适当减少室外活动。"
    }]
  }, {
    "day": "17日（星期五）",
    "date": "2021-12-17",
    "week": "星期五",
    "wea": "晴转多云",
    "wea_img": "yun",
    "wea_day": "晴",
    "wea_day_img": "qing",
    "wea_night": "多云",
    "wea_night_img": "yun",
    "tem": "0",
    "tem1": "0",
    "tem2": "-7",
    "humidity": "15",
    "visibility": "",
    "pressure": "",
    "win": ["西南风", "西南风"],
    "win_speed": "<3级",
    "win_meter": "",
    "sunrise": "07:29",
    "sunset": "16:50",
    "air": "25",
    "air_level": "优",
    "air_tips": "",
    "alarm": {
      "alarm_type": "",
      "alarm_level": "",
      "alarm_content": ""
    },
    "hours": [{
      "hours": "08时",
      "wea": "晴",
      "wea_img": "qing",
      "tem": "-6",
      "win": "西北风",
      "win_speed": "<3级"
    }, {
      "hours": "09时",
      "wea": "晴",
      "wea_img": "qing",
      "tem": "-5",
      "win": "西北风",
      "win_speed": "<3级"
    }, {
      "hours": "10时",
      "wea": "晴",
      "wea_img": "qing",
      "tem": "-4",
      "win": "西北风",
      "win_speed": "<3级"
    }, {
      "hours": "11时",
      "wea": "晴",
      "wea_img": "qing",
      "tem": "-3",
      "win": "西北风",
      "win_speed": "<3级"
    }, {
      "hours": "12时",
      "wea": "晴",
      "wea_img": "qing",
      "tem": "-2",
      "win": "西北风",
      "win_speed": "<3级"
    }, {
      "hours": "13时",
      "wea": "晴",
      "wea_img": "qing",
      "tem": "-1",
      "win": "西风",
      "win_speed": "<3级"
    }, {
      "hours": "14时",
      "wea": "晴",
      "wea_img": "qing",
      "tem": "0",
      "win": "西风",
      "win_speed": "<3级"
    }, {
      "hours": "15时",
      "wea": "晴",
      "wea_img": "qing",
      "tem": "0",
      "win": "西南风",
      "win_speed": "<3级"
    }, {
      "hours": "16时",
      "wea": "晴",
      "wea_img": "qing",
      "tem": "-1",
      "win": "西南风",
      "win_speed": "<3级"
    }, {
      "hours": "17时",
      "wea": "晴",
      "wea_img": "qing",
      "tem": "-1",
      "win": "西南风",
      "win_speed": "<3级"
    }, {
      "hours": "18时",
      "wea": "晴",
      "wea_img": "qing",
      "tem": "-2",
      "win": "西南风",
      "win_speed": "<3级"
    }, {
      "hours": "19时",
      "wea": "晴",
      "wea_img": "qing",
      "tem": "-3",
      "win": "西南风",
      "win_speed": "<3级"
    }, {
      "hours": "20时",
      "wea": "晴",
      "wea_img": "qing",
      "tem": "-3",
      "win": "西南风",
      "win_speed": "<3级"
    }, {
      "hours": "21时",
      "wea": "晴",
      "wea_img": "qing",
      "tem": "-4",
      "win": "西南风",
      "win_speed": "<3级"
    }, {
      "hours": "22时",
      "wea": "晴",
      "wea_img": "qing",
      "tem": "-4",
      "win": "西南风",
      "win_speed": "<3级"
    }, {
      "hours": "23时",
      "wea": "晴",
      "wea_img": "qing",
      "tem": "-4",
      "win": "西南风",
      "win_speed": "<3级"
    }, {
      "hours": "00时",
      "wea": "晴",
      "wea_img": "qing",
      "tem": "-4",
      "win": "西南风",
      "win_speed": "<3级"
    }, {
      "hours": "01时",
      "wea": "多云",
      "wea_img": "yun",
      "tem": "-4",
      "win": "西南风",
      "win_speed": "<3级"
    }, {
      "hours": "02时",
      "wea": "多云",
      "wea_img": "yun",
      "tem": "-4",
      "win": "西南风",
      "win_speed": "<3级"
    }, {
      "hours": "03时",
      "wea": "晴",
      "wea_img": "qing",
      "tem": "-5",
      "win": "西南风",
      "win_speed": "<3级"
    }, {
      "hours": "04时",
      "wea": "晴",
      "wea_img": "qing",
      "tem": "-6",
      "win": "西南风",
      "win_speed": "<3级"
    }, {
      "hours": "05时",
      "wea": "晴",
      "wea_img": "qing",
      "tem": "-6",
      "win": "西南风",
      "win_speed": "<3级"
    }, {
      "hours": "06时",
      "wea": "晴",
      "wea_img": "qing",
      "tem": "-6",
      "win": "西南风",
      "win_speed": "<3级"
    }, {
      "hours": "07时",
      "wea": "晴",
      "wea_img": "qing",
      "tem": "-6",
      "win": "西南风",
      "win_speed": "<3级"
    }],
    "index": [{
      "title": "紫外线指数",
      "level": "中等",
      "desc": "涂擦SPF大于15、PA+防晒护肤品。"
    }, {
      "title": "减肥指数",
      "level": "一颗星",
      "desc": "天凉室内可健身，户外运动需保暖。"
    }, {
      "title": "血糖指数",
      "level": "易波动",
      "desc": "气温多变，血糖易波动，请注意监测。"
    }, {
      "title": "穿衣指数",
      "level": "寒冷",
      "desc": "建议着厚羽绒服等隆冬服装。"
    }, {
      "title": "洗车指数",
      "level": "适宜",
      "desc": "天气较好，适合擦洗汽车。"
    }, {
      "title": "空气污染扩散指数",
      "level": "中",
      "desc": "易感人群应适当减少室外活动。"
    }]
  }, {
    "day": "18日（星期六）",
    "date": "2021-12-18",
    "week": "星期六",
    "wea": "多云转晴",
    "wea_img": "yun",
    "wea_day": "多云",
    "wea_day_img": "yun",
    "wea_night": "晴",
    "wea_night_img": "qing",
    "tem": "6",
    "tem1": "6",
    "tem2": "-7",
    "humidity": "26",
    "visibility": "",
    "pressure": "",
    "win": ["西风", "东南风"],
    "win_speed": "<3级",
    "win_meter": "",
    "sunrise": "07:30",
    "sunset": "16:51",
    "air": "33",
    "air_level": "优",
    "air_tips": "",
    "alarm": {
      "alarm_type": "",
      "alarm_level": "",
      "alarm_content": ""
    },
    "hours": [{
      "hours": "08时",
      "wea": "晴",
      "wea_img": "qing",
      "tem": "-5",
      "win": "西南风",
      "win_speed": "<3级"
    }, {
      "hours": "09时",
      "wea": "晴",
      "wea_img": "qing",
      "tem": "-3",
      "win": "西南风",
      "win_speed": "<3级"
    }, {
      "hours": "10时",
      "wea": "晴",
      "wea_img": "qing",
      "tem": "-1",
      "win": "西南风",
      "win_speed": "<3级"
    }, {
      "hours": "11时",
      "wea": "晴",
      "wea_img": "qing",
      "tem": "1",
      "win": "西南风",
      "win_speed": "<3级"
    }, {
      "hours": "12时",
      "wea": "晴",
      "wea_img": "qing",
      "tem": "2",
      "win": "西南风",
      "win_speed": "<3级"
    }, {
      "hours": "13时",
      "wea": "晴",
      "wea_img": "qing",
      "tem": "4",
      "win": "西风",
      "win_speed": "<3级"
    }, {
      "hours": "14时",
      "wea": "晴",
      "wea_img": "qing",
      "tem": "5",
      "win": "西风",
      "win_speed": "<3级"
    }, {
      "hours": "15时",
      "wea": "晴",
      "wea_img": "qing",
      "tem": "5",
      "win": "西风",
      "win_speed": "<3级"
    }, {
      "hours": "16时",
      "wea": "晴",
      "wea_img": "qing",
      "tem": "4",
      "win": "西风",
      "win_speed": "<3级"
    }, {
      "hours": "17时",
      "wea": "晴",
      "wea_img": "qing",
      "tem": "4",
      "win": "西南风",
      "win_speed": "<3级"
    }, {
      "hours": "18时",
      "wea": "晴",
      "wea_img": "qing",
      "tem": "1",
      "win": "西南风",
      "win_speed": "<3级"
    }, {
      "hours": "19时",
      "wea": "晴",
      "wea_img": "qing",
      "tem": "0",
      "win": "南风",
      "win_speed": "<3级"
    }, {
      "hours": "20时",
      "wea": "晴",
      "wea_img": "qing",
      "tem": "0",
      "win": "东南风",
      "win_speed": "<3级"
    }, {
      "hours": "21时",
      "wea": "晴",
      "wea_img": "qing",
      "tem": "-1",
      "win": "东南风",
      "win_speed": "<3级"
    }, {
      "hours": "22时",
      "wea": "晴",
      "wea_img": "qing",
      "tem": "-1",
      "win": "东南风",
      "win_speed": "<3级"
    }, {
      "hours": "23时",
      "wea": "晴",
      "wea_img": "qing",
      "tem": "-2",
      "win": "东南风",
      "win_speed": "<3级"
    }, {
      "hours": "00时",
      "wea": "晴",
      "wea_img": "qing",
      "tem": "-3",
      "win": "东南风",
      "win_speed": "<3级"
    }, {
      "hours": "01时",
      "wea": "晴",
      "wea_img": "qing",
      "tem": "-4",
      "win": "东风",
      "win_speed": "<3级"
    }, {
      "hours": "02时",
      "wea": "晴",
      "wea_img": "qing",
      "tem": "-4",
      "win": "东风",
      "win_speed": "<3级"
    }, {
      "hours": "03时",
      "wea": "晴",
      "wea_img": "qing",
      "tem": "-5",
      "win": "东风",
      "win_speed": "<3级"
    }, {
      "hours": "04时",
      "wea": "晴",
      "wea_img": "qing",
      "tem": "-6",
      "win": "东北风",
      "win_speed": "<3级"
    }, {
      "hours": "05时",
      "wea": "晴",
      "wea_img": "qing",
      "tem": "-6",
      "win": "东北风",
      "win_speed": "<3级"
    }, {
      "hours": "06时",
      "wea": "晴",
      "wea_img": "qing",
      "tem": "-6",
      "win": "东南风",
      "win_speed": "<3级"
    }, {
      "hours": "07时",
      "wea": "晴",
      "wea_img": "qing",
      "tem": "-6",
      "win": "西南风",
      "win_speed": "<3级"
    }],
    "index": [{
      "title": "紫外线指数",
      "level": "中等",
      "desc": "涂擦SPF大于15、PA+防晒护肤品。"
    }, {
      "title": "减肥指数",
      "level": "三颗星",
      "desc": "天气较舒适，减肥正当时。"
    }, {
      "title": "血糖指数",
      "level": "易波动",
      "desc": "气温多变，血糖易波动，请注意监测。"
    }, {
      "title": "穿衣指数",
      "level": "冷",
      "desc": "建议着棉衣加羊毛衫等冬季服装。"
    }, {
      "title": "洗车指数",
      "level": "适宜",
      "desc": "天气较好，适合擦洗汽车。"
    }, {
      "title": "空气污染扩散指数",
      "level": "中",
      "desc": "易感人群应适当减少室外活动。"
    }]
  }, {
    "day": "19日（星期日）",
    "date": "2021-12-19",
    "week": "星期日",
    "wea": "晴",
    "wea_img": "qing",
    "wea_day": "晴",
    "wea_day_img": "qing",
    "wea_night": "晴",
    "wea_night_img": "qing",
    "tem": "7",
    "tem1": "7",
    "tem2": "-5",
    "humidity": "33",
    "visibility": "",
    "pressure": "",
    "win": ["西南风", "西南风"],
    "win_speed": "<3级",
    "win_meter": "",
    "sunrise": "07:31",
    "sunset": "16:51",
    "air": "71",
    "air_level": "良",
    "air_tips": "",
    "alarm": {
      "alarm_type": "",
      "alarm_level": "",
      "alarm_content": ""
    },
    "hours": [{
      "hours": "08时",
      "wea": "晴",
      "wea_img": "qing",
      "tem": "-6",
      "win": "北风",
      "win_speed": "<3级"
    }, {
      "hours": "11时",
      "wea": "晴",
      "wea_img": "qing",
      "tem": "2",
      "win": "西风",
      "win_speed": "<3级"
    }, {
      "hours": "14时",
      "wea": "晴",
      "wea_img": "qing",
      "tem": "6",
      "win": "南风",
      "win_speed": "<3级"
    }, {
      "hours": "17时",
      "wea": "晴",
      "wea_img": "qing",
      "tem": "2",
      "win": "西南风",
      "win_speed": "<3级"
    }, {
      "hours": "20时",
      "wea": "晴",
      "wea_img": "qing",
      "tem": "0",
      "win": "西南风",
      "win_speed": "<3级"
    }, {
      "hours": "23时",
      "wea": "晴",
      "wea_img": "qing",
      "tem": "-2",
      "win": "西风",
      "win_speed": "<3级"
    }, {
      "hours": "02时",
      "wea": "晴",
      "wea_img": "qing",
      "tem": "-3",
      "win": "西北风",
      "win_speed": "<3级"
    }, {
      "hours": "05时",
      "wea": "晴",
      "wea_img": "qing",
      "tem": "-4",
      "win": "西北风",
      "win_speed": "<3级"
    }],
    "index": [{
      "title": "紫外线指数",
      "level": "中等",
      "desc": "涂擦SPF大于15、PA+防晒护肤品。"
    }, {
      "title": "减肥指数",
      "level": "三颗星",
      "desc": "天气较舒适，减肥正当时。"
    }, {
      "title": "血糖指数",
      "level": "不易波动",
      "desc": "天气条件好，血糖不易波动，可适时进行户外锻炼。"
    }, {
      "title": "穿衣指数",
      "level": "冷",
      "desc": "建议着棉衣加羊毛衫等冬季服装。"
    }, {
      "title": "洗车指数",
      "level": "适宜",
      "desc": "天气较好，适合擦洗汽车。"
    }, {
      "title": "空气污染扩散指数",
      "level": "中",
      "desc": "易感人群应适当减少室外活动。"
    }]
  }, {
    "day": "20日（星期一）",
    "date": "2021-12-20",
    "week": "星期一",
    "wea": "晴",
    "wea_img": "qing",
    "wea_day": "晴",
    "wea_day_img": "qing",
    "wea_night": "晴",
    "wea_night_img": "qing",
    "tem": "9",
    "tem1": "9",
    "tem2": "-5",
    "humidity": "36",
    "visibility": "",
    "pressure": "",
    "win": ["西南风", "北风"],
    "win_speed": "<3级",
    "win_meter": "",
    "sunrise": "07:31",
    "sunset": "16:52",
    "air": "76",
    "air_level": "良",
    "air_tips": "",
    "alarm": {
      "alarm_type": "",
      "alarm_level": "",
      "alarm_content": ""
    },
    "hours": [{
      "hours": "08时",
      "wea": "晴",
      "wea_img": "qing",
      "tem": "-4",
      "win": "西北风",
      "win_speed": "<3级"
    }, {
      "hours": "11时",
      "wea": "晴",
      "wea_img": "qing",
      "tem": "2",
      "win": "西风",
      "win_speed": "<3级"
    }, {
      "hours": "14时",
      "wea": "晴",
      "wea_img": "qing",
      "tem": "8",
      "win": "南风",
      "win_speed": "<3级"
    }, {
      "hours": "17时",
      "wea": "晴",
      "wea_img": "qing",
      "tem": "3",
      "win": "西南风",
      "win_speed": "<3级"
    }, {
      "hours": "20时",
      "wea": "晴",
      "wea_img": "qing",
      "tem": "0",
      "win": "西南风",
      "win_speed": "<3级"
    }, {
      "hours": "23时",
      "wea": "晴",
      "wea_img": "qing",
      "tem": "-3",
      "win": "西南风",
      "win_speed": "<3级"
    }, {
      "hours": "02时",
      "wea": "晴",
      "wea_img": "qing",
      "tem": "-4",
      "win": "北风",
      "win_speed": "<3级"
    }, {
      "hours": "05时",
      "wea": "晴",
      "wea_img": "qing",
      "tem": "-2",
      "win": "南风",
      "win_speed": "<3级"
    }],
    "index": [{
      "title": "紫外线指数",
      "level": "中等",
      "desc": "涂擦SPF大于15、PA+防晒护肤品。"
    }, {
      "title": "减肥指数",
      "level": "三颗星",
      "desc": "天气较舒适，减肥正当时。"
    }, {
      "title": "血糖指数",
      "level": "不易波动",
      "desc": "天气条件好，血糖不易波动，可适时进行户外锻炼。"
    }, {
      "title": "穿衣指数",
      "level": "较冷",
      "desc": "建议着厚外套加毛衣等服装。"
    }, {
      "title": "洗车指数",
      "level": "适宜",
      "desc": "天气较好，适合擦洗汽车。"
    }, {
      "title": "空气污染扩散指数",
      "level": "中",
      "desc": "易感人群应适当减少室外活动。"
    }]
  }, {
    "day": "21日（星期二）",
    "date": "2021-12-21",
    "week": "星期二",
    "wea": "晴",
    "wea_img": "qing",
    "wea_day": "晴",
    "wea_day_img": "qing",
    "wea_night": "晴",
    "wea_night_img": "qing",
    "tem": "9",
    "tem1": "9",
    "tem2": "-5",
    "humidity": "36",
    "visibility": "",
    "pressure": "",
    "win": ["东南风", "东南风"],
    "win_speed": "<3级",
    "win_meter": "",
    "sunrise": "07:32",
    "sunset": "16:52",
    "air": "84",
    "air_level": "良",
    "air_tips": "",
    "alarm": {
      "alarm_type": "",
      "alarm_level": "",
      "alarm_content": ""
    },
    "hours": [{
      "hours": "08时",
      "wea": "晴",
      "wea_img": "qing",
      "tem": "-1",
      "win": "北风",
      "win_speed": "<3级"
    }, {
      "hours": "11时",
      "wea": "晴",
      "wea_img": "qing",
      "tem": "4",
      "win": "东北风",
      "win_speed": "<3级"
    }, {
      "hours": "14时",
      "wea": "晴",
      "wea_img": "qing",
      "tem": "8",
      "win": "东南风",
      "win_speed": "<3级"
    }, {
      "hours": "17时",
      "wea": "晴",
      "wea_img": "qing",
      "tem": "3",
      "win": "东风",
      "win_speed": "<3级"
    }, {
      "hours": "20时",
      "wea": "晴",
      "wea_img": "qing",
      "tem": "0",
      "win": "东南风",
      "win_speed": "<3级"
    }, {
      "hours": "23时",
      "wea": "晴",
      "wea_img": "qing",
      "tem": "-1",
      "win": "东风",
      "win_speed": "<3级"
    }, {
      "hours": "02时",
      "wea": "晴",
      "wea_img": "qing",
      "tem": "-2",
      "win": "东风",
      "win_speed": "<3级"
    }, {
      "hours": "05时",
      "wea": "晴",
      "wea_img": "qing",
      "tem": "-4",
      "win": "东南风",
      "win_speed": "<3级"
    }],
    "index": [{
      "title": "紫外线指数",
      "level": "中等",
      "desc": "涂擦SPF大于15、PA+防晒护肤品。"
    }, {
      "title": "减肥指数",
      "level": "三颗星",
      "desc": "天气较舒适，减肥正当时。"
    }, {
      "title": "血糖指数",
      "level": "不易波动",
      "desc": "天气条件好，血糖不易波动，可适时进行户外锻炼。"
    }, {
      "title": "穿衣指数",
      "level": "较冷",
      "desc": "建议着厚外套加毛衣等服装。"
    }, {
      "title": "洗车指数",
      "level": "适宜",
      "desc": "天气较好，适合擦洗汽车。"
    }, {
      "title": "空气污染扩散指数",
      "level": "中",
      "desc": "易感人群应适当减少室外活动。"
    }]
  }, {
    "day": "22日（星期三）",
    "date": "2021-12-22",
    "week": "星期三",
    "wea": "晴转多云",
    "wea_img": "yun",
    "wea_day": "晴",
    "wea_day_img": "qing",
    "wea_night": "多云",
    "wea_night_img": "yun",
    "tem": "7",
    "tem1": "7",
    "tem2": "-4",
    "humidity": "49",
    "visibility": "",
    "pressure": "",
    "win": ["东南风", "东南风"],
    "win_speed": "<3级",
    "win_meter": "",
    "sunrise": "07:32",
    "sunset": "16:53",
    "air": "86",
    "air_level": "良",
    "air_tips": "",
    "alarm": {
      "alarm_type": "",
      "alarm_level": "",
      "alarm_content": ""
    },
    "hours": [{
      "hours": "08时",
      "wea": "晴",
      "wea_img": "qing",
      "tem": "-4",
      "win": "东南风",
      "win_speed": "<3级"
    }, {
      "hours": "11时",
      "wea": "晴",
      "wea_img": "qing",
      "tem": "2",
      "win": "东南风",
      "win_speed": "<3级"
    }, {
      "hours": "14时",
      "wea": "晴",
      "wea_img": "qing",
      "tem": "6",
      "win": "南风",
      "win_speed": "<3级"
    }, {
      "hours": "17时",
      "wea": "晴",
      "wea_img": "qing",
      "tem": "4",
      "win": "东南风",
      "win_speed": "<3级"
    }, {
      "hours": "20时",
      "wea": "晴",
      "wea_img": "qing",
      "tem": "0",
      "win": "东南风",
      "win_speed": "<3级"
    }, {
      "hours": "23时",
      "wea": "多云",
      "wea_img": "yun",
      "tem": "-2",
      "win": "东南风",
      "win_speed": "<3级"
    }, {
      "hours": "02时",
      "wea": "多云",
      "wea_img": "yun",
      "tem": "-3",
      "win": "东北风",
      "win_speed": "<3级"
    }, {
      "hours": "05时",
      "wea": "多云",
      "wea_img": "yun",
      "tem": "-3",
      "win": "东北风",
      "win_speed": "<3级"
    }],
    "index": [{
      "title": "紫外线指数",
      "level": "中等",
      "desc": "涂擦SPF大于15、PA+防晒护肤品。"
    }, {
      "title": "减肥指数",
      "level": "一颗星",
      "desc": "天凉室内可健身，户外运动需保暖。"
    }, {
      "title": "血糖指数",
      "level": "不易波动",
      "desc": "天气条件好，血糖不易波动，可适时进行户外锻炼。"
    }, {
      "title": "穿衣指数",
      "level": "冷",
      "desc": "建议着棉衣加羊毛衫等冬季服装。"
    }, {
      "title": "洗车指数",
      "level": "适宜",
      "desc": "天气较好，适合擦洗汽车。"
    }, {
      "title": "空气污染扩散指数",
      "level": "中",
      "desc": "易感人群应适当减少室外活动。"
    }]
  }],
  "aqi": {
    "update_time": "11:35",
    "cityid": "101010100",
    "city": "北京",
    "cityEn": "beijing",
    "country": "中国",
    "countryEn": "China",
    "air": "53",
    "air_level": "良",
    "air_tips": "空气好，可以外出活动，除极少数对污染物特别敏感的人群以外，对公众没有危害！",
    "pm25": "5",
    "pm25_desc": "优",
    "pm10": "55",
    "pm10_desc": "良",
    "o3": "59",
    "o3_desc": "优",
    "no2": "9",
    "no2_desc": "优",
    "so2": "3",
    "so2_desc": "优",
    "co": "-",
    "co_desc": "-",
    "kouzhao": "不用佩戴口罩",
    "yundong": "适宜运动",
    "waichu": "适宜外出",
    "kaichuang": "适宜开窗",
    "jinghuaqi": "关闭净化器"
  }
}